[
  {
    "pottyName": "pavilions",
    "pottyAddress": "Pavilions, 820 Montana Ave, Santa Monica, CA 90403, United States of America",
    "pottyRule": "Door Code",
    "pottyNotes": "02231",
    "pottyType": "Supermarket",
    "latitude": 34.027753423000405,
    "longitude": -118.50050190637977
  },
  {
    "pottyName": "Guitar Center",
    "pottyAddress": "Guitar Center, 14209 Ventura Boulevard, Los Angeles, CA 91423, United States of America",
    "pottyRule": "Door Code",
    "pottyNotes": "54321",
    "pottyType": "Retail Store",
    "latitude": 34.1501534,
    "longitude": -118.44234422724307
  },
  {
    "pottyName": "Home",
    "pottyAddress": "314 Mesa Road, Los Angeles, CA 90402, United States of America",
    "pottyRule": "Call or Text",
    "pottyNotes": "my number",
    "pottyType": "General",
    "latitude": 34.0308136,
    "longitude": -118.51507189024846
  },
  {
    "pottyName": "Home Depot",
    "pottyAddress": "Home Depot Place, Los Angeles, CA 91406, United States of America",
    "pottyRule": "Free Access",
    "pottyNotes": "Back right",
    "pottyType": "Hardware Store",
    "latitude": 34.223269,
    "longitude": -118.484982
  },
  {
    "pottyName": "Vons",
    "pottyAddress": "Vons, 1311 Wilshire Boulevard, Santa Monica, CA 90403, United States of America",
    "pottyRule": "Door Code",
    "pottyNotes": "123456",
    "pottyType": "Supermarket",
    "latitude": 34.0343657,
    "longitude": -118.4794544
  },
  {
    "pottyName": "Guitar Center",
    "pottyAddress": "Guitar Center, West Pico Boulevard, Los Angeles, CA 90064, United States of America",
    "pottyRule": "Door Code",
    "pottyNotes": "10831",
    "pottyType": "Retail Store",
    "latitude": 34.0395789,
    "longitude": -118.429643
  },
  {
    "pottyName": "Ace Hardware",
    "pottyAddress": "2020 South Bundy Drive, Los Angeles, CA 90025, United States of America",
    "pottyRule": "Door Code",
    "pottyNotes": "01442",
    "pottyType": "Hardware Store",
    "latitude": 34.03365132653062,
    "longitude": -118.45507675510204
  }
]